{
    "status": "ok",
    "data": [
        {
            "lat": 43.19364967260028,
            "lon": 76.90962542469542,
            "uid": -398842,
            "aqi": "63",
            "station": {
                "name": "Nicolas International chain of wineries",
                "time": "2025-03-07T16:00:00+09:00"
            }
        },
        {
            "lat": 43.214014722222,
            "lon": 76.893050833333,
            "uid": -517657,
            "aqi": "66",
            "station": {
                "name": "Розыбакиева, 270",
                "time": "2025-03-07T16:00:00+09:00"
            }
        },
        {
            "lat": 43.2554,
            "lon": 77.0193,
            "uid": -408991,
            "aqi": "61",
            "station": {
                "name": "Кенсай",
                "time": "2025-03-07T16:24:10+09:00"
            }
        },
        {
            "lat": 43.334,
            "lon": 76.982,
            "uid": -520300,
            "aqi": "21",
            "station": {
                "name": "улица Монтажная",
                "time": "2025-03-07T17:27:44+09:00"
            }
        },
        {
            "lat": 43.35813359109591,
            "lon": 76.92289958238688,
            "uid": -399181,
            "aqi": "42",
            "station": {
                "name": "Kokzhiyek-63",
                "time": "2025-03-07T16:00:00+09:00"
            }
        },
        {
            "lat": 43.29170729096677,
            "lon": 76.98979982475333,
            "uid": -398704,
            "aqi": "55",
            "station": {
                "name": "Zhetysu 47",
                "time": "2025-03-07T16:00:00+09:00"
            }
        },
        {
            "lat": 43.324,
            "lon": 76.919,
            "uid": -115870,
            "aqi": "42",
            "station": {
                "name": "Айнабулак-3",
                "time": "2025-03-07T16:24:22+09:00"
            }
        },
        {
            "lat": 43.368606872490815,
            "lon": 76.94705072701963,
            "uid": -398092,
            "aqi": "40",
            "station": {
                "name": "Elaman 105 St.",
                "time": "2025-03-07T16:00:00+09:00"
            }
        },
        {
            "lat": 43.23396107591564,
            "lon": 76.80012719631037,
            "uid": -399502,
            "aqi": "56",
            "station": {
                "name": "Hospital-7",
                "time": "2025-03-07T16:00:00+09:00"
            }
        },
        {
            "lat": 43.312,
            "lon": 77.001,
            "uid": -114514,
            "aqi": "61",
            "station": {
                "name": "Жана Кайрат",
                "time": "2025-03-07T16:24:51+09:00"
            }
        },
        {
            "lat": 43.177,
            "lon": 76.966,
            "uid": -114496,
            "aqi": "105",
            "station": {
                "name": "Каменское плато",
                "time": "2025-03-07T16:24:06+09:00"
            }
        },
        {
            "lat": 43.298601388889,
            "lon": 76.851854444444,
            "uid": -517417,
            "aqi": "-",
            "station": {
                "name": "Шаңырақ 2 шағын ауданы, Жанқожа батыр көш.26",
                "time": "2025-03-07T16:00:00+09:00"
            }
        },
        {
            "lat": 43.33314681,
            "lon": 76.98181185,
            "uid": -130186,
            "aqi": "21",
            "station": {
                "name": "улица Монтажная",
                "time": "2025-03-07T17:17:51+09:00"
            }
        },
        {
            "lat": 43.34158170973398,
            "lon": 76.98192511971963,
            "uid": -398836,
            "aqi": "47",
            "station": {
                "name": "Iliyski trakt",
                "time": "2025-03-07T16:00:00+09:00"
            }
        },
        {
            "lat": 43.249658504741106,
            "lon": 76.80559998147626,
            "uid": -399145,
            "aqi": "56",
            "station": {
                "name": "EkoPost",
                "time": "2025-03-07T16:00:00+09:00"
            }
        },
        {
            "lat": 43.29161420999885,
            "lon": 76.80436756266862,
            "uid": -398878,
            "aqi": "42",
            "station": {
                "name": "CHP",
                "time": "2025-03-07T16:00:00+09:00"
            }
        },
        {
            "lat": 43.177869444444,
            "lon": 76.918204722222,
            "uid": -519415,
            "aqi": "77",
            "station": {
                "name": " Ерменсай Шие үйі. №3",
                "time": "2025-03-07T16:00:00+09:00"
            }
        },
        {
            "lat": 43.283229322033016,
            "lon": 76.92753219053208,
            "uid": -399694,
            "aqi": "119",
            "station": {
                "name": "Shamiyeva St.",
                "time": "2025-03-07T16:00:00+09:00"
            }
        },
        {
            "lat": 43.290757,
            "lon": 76.841229,
            "uid": -397960,
            "aqi": "53",
            "station": {
                "name": "Kokkainar Micro",
                "time": "2025-03-07T16:00:00+09:00"
            }
        },
        {
            "lat": 43.1333,
            "lon": 76.8695,
            "uid": -366844,
            "aqi": "80",
            "station": {
                "name": "Звездная поляна",
                "time": "2025-03-07T16:24:03+09:00"
            }
        },
        {
            "lat": 43.205327130825815,
            "lon": 76.7769168478819,
            "uid": -399220,
            "aqi": "59",
            "station": {
                "name": "DIS-7",
                "time": "2025-03-07T16:00:00+09:00"
            }
        },
        {
            "lat": 43.27865455271868,
            "lon": 76.90347457672107,
            "uid": -398785,
            "aqi": "52",
            "station": {
                "name": "Ryskulova 81",
                "time": "2025-03-07T16:00:00+09:00"
            }
        },
        {
            "lat": 43.15475667376976,
            "lon": 76.89920068011332,
            "uid": -398557,
            "aqi": "62",
            "station": {
                "name": "School 190",
                "time": "2025-03-07T16:00:00+09:00"
            }
        },
        {
            "lat": 43.193546388889,
            "lon": 76.883063611111,
            "uid": -517414,
            "aqi": "49",
            "station": {
                "name": "«Орбита» ықшам ауданы, «Зендстрой» АҚ Дендропарк аумағында",
                "time": "2025-03-07T16:00:00+09:00"
            }
        },
        {
            "lat": 43.18579430712143,
            "lon": 76.82847702612057,
            "uid": -399277,
            "aqi": "67",
            "station": {
                "name": "School 187",
                "time": "2025-03-07T16:00:00+09:00"
            }
        },
        {
            "lat": 43.222,
            "lon": 76.851,
            "uid": 12774,
            "aqi": "2",
            "station": {
                "name": "Almaty, US Embassy, Kazakhstan (Алматы, АҚШ елшілігі)",
                "time": "2025-03-07T16:00:00+09:00"
            }
        },
        {
            "lat": 43.176,
            "lon": 76.872,
            "uid": -410893,
            "aqi": "28",
            "station": {
                "name": "Алматы санаторий",
                "time": "2025-03-07T17:26:54+09:00"
            }
        },
        {
            "lat": 43.25347876621724,
            "lon": 76.94536842109201,
            "uid": -398971,
            "aqi": "57",
            "station": {
                "name": "KBTU",
                "time": "2025-03-07T16:00:00+09:00"
            }
        },
        {
            "lat": 43.31676494629688,
            "lon": 76.91083701308452,
            "uid": -399151,
            "aqi": "50",
            "station": {
                "name": "School 137",
                "time": "2025-03-07T16:00:00+09:00"
            }
        },
        {
            "lat": 43.263798333333,
            "lon": 76.8147375,
            "uid": -517444,
            "aqi": "-",
            "station": {
                "name": "Алатау ауданы, Момышұлы көшесіндегі «Алматы аренасы» мұз айдыны",
                "time": "2025-03-07T16:00:00+09:00"
            }
        },
        {
            "lat": 43.3388,
            "lon": 76.9032,
            "uid": -115249,
            "aqi": "44",
            "station": {
                "name": "Карасу 2",
                "time": "2025-03-07T16:24:52+09:00"
            }
        },
        {
            "lat": 43.22832883695745,
            "lon": 76.9602836930437,
            "uid": -399511,
            "aqi": "53",
            "station": {
                "name": "Ritz Palace",
                "time": "2025-03-07T16:00:00+09:00"
            }
        },
        {
            "lat": 43.218464378811994,
            "lon": 76.94964360143646,
            "uid": -399103,
            "aqi": "76",
            "station": {
                "name": "School 77",
                "time": "2025-03-07T16:00:00+09:00"
            }
        },
        {
            "lat": 43.24283186562071,
            "lon": 76.82871773078021,
            "uid": -398686,
            "aqi": "53",
            "station": {
                "name": "AsiaFood",
                "time": "2025-03-07T16:00:00+09:00"
            }
        },
        {
            "lat": 43.3637,
            "lon": 77.004377222222,
            "uid": -517465,
            "aqi": "56",
            "station": {
                "name": "Ахметов көшесі, 50",
                "time": "2025-03-07T16:00:00+09:00"
            }
        },
        {
            "lat": 43.31039688071044,
            "lon": 76.94216898220436,
            "uid": -399442,
            "aqi": "52",
            "station": {
                "name": "Kotelnikova St.",
                "time": "2025-03-07T16:00:00+09:00"
            }
        },
        {
            "lat": 43.23680399999999,
            "lon": 76.94481400000001,
            "uid": -398725,
            "aqi": "56",
            "station": {
                "name": "Respublika 4",
                "time": "2025-03-07T16:00:00+09:00"
            }
        },
        {
            "lat": 43.3481851029586,
            "lon": 76.843300856246,
            "uid": -398119,
            "aqi": "32",
            "station": {
                "name": "Gymnasium 39",
                "time": "2025-03-07T16:00:00+09:00"
            }
        },
        {
            "lat": 43.29677960017615,
            "lon": 76.99158959609676,
            "uid": -398761,
            "aqi": "59",
            "station": {
                "name": "Atyrau 54",
                "time": "2025-03-07T16:00:00+09:00"
            }
        },
        {
            "lat": 43.239448333333,
            "lon": 76.933233888889,
            "uid": -517564,
            "aqi": "35",
            "station": {
                "name": "Амангелді көшесі, Сәтбаев көшесінің қиылысы",
                "time": "2025-03-07T16:00:00+09:00"
            }
        },
        {
            "lat": 43.19957298448716,
            "lon": 76.85428363117835,
            "uid": -399175,
            "aqi": "1",
            "station": {
                "name": "School 175",
                "time": "2025-03-07T16:00:00+09:00"
            }
        },
        {
            "lat": 43.218,
            "lon": 76.79,
            "uid": -464161,
            "aqi": "35",
            "station": {
                "name": "Жунисова улица",
                "time": "2025-03-07T17:23:22+09:00"
            }
        },
        {
            "lat": 43.3007925,
            "lon": 76.925219444444,
            "uid": -517447,
            "aqi": "37",
            "station": {
                "name": "Жетісу ауданы, аум. Жетісу ауданының \"Құлагер\"ықшам ауданы",
                "time": "2025-03-07T16:00:00+09:00"
            }
        },
        {
            "lat": 43.178,
            "lon": 76.87,
            "uid": -162757,
            "aqi": "91",
            "station": {
                "name": "ул.Туруспекова",
                "time": "2025-03-07T16:24:14+09:00"
            }
        },
        {
            "lat": 43.176578104286946,
            "lon": 76.89770583884861,
            "uid": -397948,
            "aqi": "62",
            "station": {
                "name": "Alatau",
                "time": "2025-03-07T16:00:00+09:00"
            }
        },
        {
            "lat": 43.293,
            "lon": 76.951,
            "uid": -224707,
            "aqi": "43",
            "station": {
                "name": "Есенова",
                "time": "2025-03-07T16:24:30+09:00"
            }
        },
        {
            "lat": 43.338122222222,
            "lon": 76.952136111111,
            "uid": -517411,
            "aqi": "39",
            "station": {
                "name": "Р. Зорге көшесі, 14",
                "time": "2025-03-07T16:00:00+09:00"
            }
        },
        {
            "lat": 43.174,
            "lon": 76.917,
            "uid": -114493,
            "aqi": "79",
            "station": {
                "name": "Ерменсай",
                "time": "2025-03-07T16:24:04+09:00"
            }
        },
        {
            "lat": 43.2058,
            "lon": 76.981,
            "uid": -408994,
            "aqi": "95",
            "station": {
                "name": "Тау самал",
                "time": "2025-03-07T16:24:43+09:00"
            }
        },
        {
            "lat": 43.172031,
            "lon": 76.852339,
            "uid": -399571,
            "aqi": "66",
            "station": {
                "name": "School 192",
                "time": "2025-03-07T16:00:00+09:00"
            }
        },
        {
            "lat": 43.373304166667,
            "lon": 76.992638888889,
            "uid": -517441,
            "aqi": "4",
            "station": {
                "name": "Түрксіб ауданы, ауданы, №32 жалпы білім беретін мектеп",
                "time": "2025-03-07T16:00:00+09:00"
            }
        },
        {
            "lat": 43.24740500169,
            "lon": 76.95690894212,
            "uid": -370492,
            "aqi": "26",
            "station": {
                "name": "Dostyk Avenue",
                "time": "2025-03-07T17:28:01+09:00"
            }
        },
        {
            "lat": 43.291511111111,
            "lon": 76.951184444444,
            "uid": -517711,
            "aqi": "52",
            "station": {
                "name": " Есенов үйі. №221 Рысқұлова ",
                "time": "2025-03-07T16:00:00+09:00"
            }
        },
        {
            "lat": 43.21431008497455,
            "lon": 76.85549980598847,
            "uid": -397957,
            "aqi": "55",
            "station": {
                "name": "Mamyr-3",
                "time": "2025-03-07T16:00:00+09:00"
            }
        }
    ]
}